[{"compound_name": "虹桥万博花园", "link": "https://sh.lianjia.com/xiaoqu/5011000016889/", "available_address": "古北路69弄", "year_of_construction": 2004, "building_type": "板楼", "management_company": "上海新长宁集团华阳物业有限公司", "developer_company": "上海万博房地产开发有限公司", "number_of_buildings": 17, "number_of_rooms": 1193, "name": "长宁区周家桥街道虹桥万博花园居委会", "location": {"lat": 31.222889, "lng": 121.405855}, "address": "上海市长宁区古北路69弄16号101室", "province": "上海市", "city": "上海市", "area": "长宁区", "detail": 1, "uid": "33fd9c57b3b9a5576b49f314"}, {"compound_name": "遵义路700号", "link": "https://sh.lianjia.com/xiaoqu/5011000007411/", "available_address": "遵义路700号", "year_of_construction": 1989, "building_type": "板楼", "management_company": "仙霞物业", "developer_company": "长宁集团", "number_of_buildings": 1, "number_of_rooms": 56, "name": "东南裁缝店(遵义路700号店)", "location": {"lat": 31.220471, "lng": 121.415155}, "address": "遵义路700号东南裁缝店", "province": "上海市", "city": "上海市", "area": "长宁区", "telephone": "13482184085", "detail": 1, "uid": "6b37aa5ea6370211c27da228"}, {"compound_name": "长联大厦", "link": "https://sh.lianjia.com/xiaoqu/5011000015789/", "available_address": "中山西路666号", "year_of_construction": 1992, "building_type": "塔楼", "management_company": "上海长宁周家桥物业公司", "developer_company": "上海新长宁集团有限公司", "number_of_buildings": 1, "number_of_rooms": 170, "name": "中山西路666号", "location": {"lat": 31.214876, "lng": 121.418298}, "address": "长宁区"}, {"compound_name": "华苑小区", "link": "https://sh.lianjia.com/xiaoqu/5011000013672/", "available_address": "遵义路800弄", "year_of_construction": 1980, "building_type": "板楼", "management_company": "华阳物业", "developer_company": "上海新长宁（集团）有限公司", "number_of_buildings": 27, "number_of_rooms": 530, "name": "遵义路800弄-26号", "location": {"lat": 31.221717, "lng": 121.416553}, "address": "上海市长宁区遵义路800弄26号", "province": "上海市", "city": "上海市", "area": "长宁区", "street_id": "ba020be60a5db2bc5b1093e5", "detail": 1, "uid": "ba020be60a5db2bc5b1093e5"}, {"compound_name": "玉屏南路201号", "link": "https://sh.lianjia.com/xiaoqu/5011000000591/", "available_address": "玉屏南路201号", "year_of_construction": 1969, "building_type": "板楼", "management_company": "华阳物业", "developer_company": "长宁集团", "number_of_buildings": 1, "number_of_rooms": 48, "name": "玉屏南路201号", "location": {"lat": 31.218674, "lng": 121.415636}, "address": "长宁区"}, {"compound_name": "太阳广场", "link": "https://sh.lianjia.com/xiaoqu/5011000017218/", "available_address": "仙霞路88号", "year_of_construction": 1995, "building_type": "塔楼", "management_company": "上海永联物业管理咨询有限公司", "developer_company": "上海爱民投资有限公司", "number_of_buildings": 2, "number_of_rooms": 392, "name": "仙霞路88号", "location": {"lat": 31.211377, "lng": 121.410415}, "address": "长宁区"}, {"compound_name": "万航渡路2538号", "link": "https://sh.lianjia.com/xiaoqu/5011000008598/", "available_address": "万航渡路2538号", "year_of_construction": 1987, "building_type": "板楼", "management_company": "华阳物业管理公司", "developer_company": "长宁集团", "number_of_buildings": 1, "number_of_rooms": 15, "name": "万航渡路2538号", "location": {"lat": 31.225197, "lng": 121.412249}, "address": "长宁区"}, {"compound_name": "锦屏小区", "link": "https://sh.lianjia.com/xiaoqu/5011000013288/", "available_address": "玉屏南路560弄", "year_of_construction": 1983, "building_type": "板楼", "management_company": "上海新长宁集团华阳物业有限公司", "developer_company": "长宁集团", "number_of_buildings": 26, "number_of_rooms": 659, "name": "560弄", "location": {"lat": 31.221687, "lng": 121.408936}, "address": "长宁区"}, {"compound_name": "新风小区", "link": "https://sh.lianjia.com/xiaoqu/5011000014930/", "available_address": "古北路181弄,古北路211弄,玉屏南路731弄,玉屏南路723号", "year_of_construction": 1981, "building_type": "板楼", "management_company": "上海古北物业管理有限公司虹桥分公司", "developer_company": "古北集团", "number_of_buildings": 51, "number_of_rooms": 1072, "name": "古北路181弄-16号", "location": {"lat": 31.220213, "lng": 121.4074}, "address": "上海市长宁区玉屏南路725-3附近", "province": "上海市", "city": "上海市", "area": "长宁区", "street_id": "7c1be6cef6e050ac3517dcc1", "detail": 1, "uid": "7c1be6cef6e050ac3517dcc1"}, {"compound_name": "天悦小区", "link": "https://sh.lianjia.com/xiaoqu/5011000011982/", "available_address": "娄山关路470弄", "year_of_construction": 1975, "building_type": "板楼", "management_company": "上海新长宁集团", "developer_company": "上海新城宁", "number_of_buildings": 21, "number_of_rooms": 531, "name": "娄山关路470弄", "location": {"lat": 31.214105, "lng": 121.410577}, "address": "长宁区"}, {"compound_name": "天山路820弄", "link": "https://sh.lianjia.com/xiaoqu/5011000003994/", "available_address": "天山路820弄", "year_of_construction": 1982, "building_type": "板楼", "management_company": "仙霞物业", "developer_company": "长宁集团", "number_of_buildings": 8, "number_of_rooms": 150, "name": "天山路", "location": {"lat": 31.218075, "lng": 121.408811}, "address": "长宁区"}, {"compound_name": "紫云大厦", "link": "https://sh.lianjia.com/xiaoqu/5011000016110/", "available_address": "中山西路800弄55号", "year_of_construction": 1996, "building_type": "塔楼", "management_company": "永乐物业", "developer_company": "上海新长宁（集团）有限公司", "number_of_buildings": 1, "number_of_rooms": 145, "name": "紫云大厦-西门", "location": {"lat": 31.212355, "lng": 121.41673}, "address": "中山西路800弄55号", "province": "上海市", "city": "上海市", "area": "长宁区", "street_id": "2164a9ed9cc9967c72210b2c", "detail": 1, "uid": "2164a9ed9cc9967c72210b2c"}, {"compound_name": "长宁路1600弄", "link": "https://sh.lianjia.com/xiaoqu/5011000006829/", "available_address": "长宁路1600弄", "year_of_construction": 1976, "building_type": "板楼", "management_company": "上海新长宁集团华阳物业有限公司", "developer_company": "长宁集团", "number_of_buildings": 24, "number_of_rooms": 755, "name": "长宁路1600弄", "location": {"lat": 31.223935, "lng": 121.413846}, "address": "长宁区"}, {"compound_name": "虹桥华庭", "link": "https://sh.lianjia.com/xiaoqu/5011000018289/", "available_address": "古北路555弄", "year_of_construction": 2004, "building_type": "板楼", "management_company": "新加坡怡安物业管理有限公司", "developer_company": "上海联合物业发展有限公司、上海龙联置业有限公司", "number_of_buildings": 6, "number_of_rooms": 453, "name": "555弄", "location": {"lat": 31.214099, "lng": 121.408309}, "address": "长宁区"}, {"compound_name": "科宁公寓", "link": "https://sh.lianjia.com/xiaoqu/5011000014108/", "available_address": "中山西路340号,中山西路430号,中山西路450号", "year_of_construction": 1991, "building_type": "塔楼/板楼", "management_company": "上海新长宁集团新程物业有限公司", "developer_company": "上海新长宁（集团）有限公司", "number_of_buildings": 3, "number_of_rooms": 766, "name": "中山西路450号", "location": {"lat": 31.22037, "lng": 121.417767}, "address": "长宁区"}, {"compound_name": "清宁小区", "link": "https://sh.lianjia.com/xiaoqu/5011000015259/", "available_address": "万航渡路2505弄11-46号", "year_of_construction": 1982, "building_type": "板楼", "management_company": "上海绿安物业管理发展有限公司", "developer_company": "长宁集团", "number_of_buildings": 26, "number_of_rooms": 624, "name": "万航渡路2505弄11号", "location": {"lat": 31.225718, "lng": 121.412889}, "address": "万航渡路2501号附近", "province": "上海市", "city": "上海市", "area": "长宁区", "street_id": "07cca918c62115d3990050dd", "detail": 1, "uid": "07cca918c62115d3990050dd"}, {"compound_name": "中宁大厦", "link": "https://sh.lianjia.com/xiaoqu/5011000017439/", "available_address": "长宁路1488弄18号", "year_of_construction": 1999, "building_type": "塔楼", "management_company": "上海上房物业有限公司", "developer_company": "上海梅都房地产开发有限公司", "number_of_buildings": 1, "number_of_rooms": 114, "name": "中宁大厦", "location": {"lat": 31.224392, "lng": 121.415853}, "address": "长宁路1488弄18号", "province": "上海市", "city": "上海市", "area": "长宁区", "street_id": "9511c0aacf0d6e220d3ddaf7", "telephone": "(021)52733046", "detail": 1, "uid": "9511c0aacf0d6e220d3ddaf7"}, {"compound_name": "上海花城", "link": "https://sh.lianjia.com/xiaoqu/5011000015371/", "available_address": "长宁路1818弄1-44号", "year_of_construction": 2000, "building_type": "板楼", "management_company": "上海东湖物业管理公司", "developer_company": "上海上科实业有限公司", "number_of_buildings": 41, "number_of_rooms": 1157, "name": "长宁路1818弄-44号", "location": {"lat": 31.226194, "lng": 121.411469}, "address": "上海市长宁区万航渡路2530号附近", "province": "上海市", "city": "上海市", "area": "长宁区", "street_id": "2cfb422a16ca8f47adb22a6d", "detail": 1, "uid": "2cfb422a16ca8f47adb22a6d"}, {"compound_name": "沂南路42弄", "link": "https://sh.lianjia.com/xiaoqu/5011000019454/", "available_address": "沂南路42弄, 沂南路38号, 沂南路40号, 沂南路44号, 沂南路46号, 沂南路48号", "year_of_construction": 1979, "building_type": "板楼", "management_company": "南码头物业", "developer_company": "振南集团", "number_of_buildings": 11, "number_of_rooms": 252, "name": "沂南路42弄-1幢", "location": {"lat": 31.203445, "lng": 121.51413}, "address": "沂南路42弄1幢", "province": "上海市", "city": "上海市", "area": "浦东新区", "street_id": "10fe1e6a35e3f50fb9df8fe6", "detail": 1, "uid": "10fe1e6a35e3f50fb9df8fe6"}, {"compound_name": "中紫小区", "link": "https://sh.lianjia.com/xiaoqu/5011000015078/", "available_address": "中山西路800弄1-53号", "year_of_construction": 1966, "building_type": "塔楼/板楼", "management_company": "上海八维物业公司", "developer_company": "上海八维房地产公司", "number_of_buildings": 21, "number_of_rooms": 1332, "name": "中山西路800弄51号", "location": {"lat": 31.21347, "lng": 121.417167}, "address": "中山西路800弄51号", "province": "上海市", "city": "上海市", "area": "长宁区", "street_id": "9559ca7070dabff649fd3f5c", "detail": 1, "uid": "9559ca7070dabff649fd3f5c"}, {"compound_name": "康泰新城", "link": "https://sh.lianjia.com/xiaoqu/5011000016498/", "available_address": "华灵路1885弄,华灵路1895弄,真金路1039弄", "year_of_construction": 1999, "building_type": "板楼", "management_company": "大华物业", "developer_company": "大华集团上海华宜置业有限公司", "number_of_buildings": 262, "number_of_rooms": 3426, "name": "真金路1039弄", "location": {"lat": 31.288249, "lng": 121.41083}, "address": "宝山区"}, {"compound_name": "锦屏路10弄", "link": "https://sh.lianjia.com/xiaoqu/5011000004633/", "available_address": "锦屏路10弄", "year_of_construction": 1989, "building_type": "板楼", "management_company": "上海新长宁集团华阳物业有限公司", "developer_company": "长宁集团", "number_of_buildings": 12, "number_of_rooms": 294, "name": "锦屏路10弄小区", "location": {"lat": 31.221925, "lng": 121.40851}, "address": "上海市长宁区锦屏路与云雾山路交叉路口东南侧(锦阳小区)", "province": "上海市", "city": "上海市", "area": "长宁区", "street_id": "c10579645acc2f616849f3f5", "detail": 1, "uid": "c10579645acc2f616849f3f5"}, {"compound_name": "娄山关路815弄", "link": "https://sh.lianjia.com/xiaoqu/5011000007995/", "available_address": "娄山关路815弄", "year_of_construction": 1965, "building_type": "板楼", "management_company": "上海新长宁集团新程物业有限公司", "developer_company": "上海新长宁（集团）有限公司", "number_of_buildings": 12, "number_of_rooms": 281, "name": "娄山关路815弄小区", "location": {"lat": 31.219144, "lng": 121.410947}, "address": "上海市长宁区遵义路185号", "province": "上海市", "city": "上海市", "area": "长宁区", "street_id": "b2f97bea907a2aed8c1a89dc", "detail": 1, "uid": "b2f97bea907a2aed8c1a89dc"}, {"compound_name": "民生里", "link": "https://sh.lianjia.com/xiaoqu/5011000014926/", "available_address": "云雾山路221弄", "year_of_construction": 1986, "building_type": "板楼", "management_company": "华阳物业管理公司", "developer_company": "华阳房地产开发有限公司", "number_of_buildings": 12, "number_of_rooms": 303, "name": "云雾山路221弄", "location": {"lat": 31.221751, "lng": 121.409881}, "address": "长宁区"}, {"compound_name": "遵义路575弄", "link": "https://sh.lianjia.com/xiaoqu/5011000007647/", "available_address": "遵义路575弄", "year_of_construction": 1987, "building_type": "板楼", "management_company": "仙霞物业", "developer_company": "长宁集团", "number_of_buildings": 5, "number_of_rooms": 114, "name": "遵义路575弄小区", "location": {"lat": 31.220483, "lng": 121.41481}, "address": "上海市长宁区遵义路575弄1-5号", "province": "上海市", "city": "上海市", "area": "长宁区", "street_id": "61ba1300e4ceb988c72ba142", "detail": 1, "uid": "61ba1300e4ceb988c72ba142"}, {"compound_name": "天山路1726弄", "link": "https://sh.lianjia.com/xiaoqu/5011000000679/", "available_address": "天山路1726弄", "year_of_construction": 1986, "building_type": "板楼", "management_company": "上海新长宁集团新程物业有限公司", "developer_company": "长宁集团", "number_of_buildings": 10, "number_of_rooms": 210, "name": "天山路1726弄小区", "location": {"lat": 31.216906, "lng": 121.415678}, "address": "上海市长宁区天山路与遵义路交叉口东150米", "province": "上海市", "city": "上海市", "area": "长宁区", "street_id": "e52ff23685500735e812e4b3", "detail": 1, "uid": "e52ff23685500735e812e4b3"}, {"compound_name": "家电大楼", "link": "https://sh.lianjia.com/xiaoqu/5011000014103/", "available_address": "中山西路380号", "year_of_construction": 1987, "building_type": "塔楼", "management_company": "长宁物业", "developer_company": "长宁集团", "number_of_buildings": 1, "number_of_rooms": 165, "name": "中山西路380号", "location": {"lat": 31.221519, "lng": 121.417198}, "address": "长宁区"}, {"compound_name": "联建新村(长宁)", "link": "https://sh.lianjia.com/xiaoqu/5011000015336/", "available_address": "延安西路2029弄1-9号,延安西路2055弄1-8号,仙霞路15弄1-7号,联建新村", "year_of_construction": 1957, "building_type": "板楼", "management_company": "联建物业", "developer_company": "华东纺织工学院(今东华大学)、市医药设计院等单位", "number_of_buildings": 56, "number_of_rooms": 1230, "name": "延安西路2029弄2号", "location": {"lat": 31.21155, "lng": 121.417163}, "address": "延安西路2029弄2号", "province": "上海市", "city": "上海市", "area": "长宁区", "street_id": "6aaa5b246cf643f372210b00", "detail": 1, "uid": "6aaa5b246cf643f372210b00"}, {"compound_name": "新光小区", "link": "https://sh.lianjia.com/xiaoqu/5011000017482/", "available_address": "玉屏南路537弄, 玉屏南路561弄, 玉屏南路567号, 玉屏南路549号, 玉屏南路557号, 玉屏南路559号, 玉屏南路565号, 玉屏南路569号, 玉屏南路541号, 玉屏南路543号, 玉屏南路545号, 玉屏南路551号, 玉屏南路555号, 玉屏南路547号", "year_of_construction": 1987, "building_type": "板楼", "management_company": "上海新长宁集团天山物业有限公司", "developer_company": "上海上科实业有限公司", "number_of_buildings": 45, "number_of_rooms": 935, "name": "玉屏南路537弄-15号", "location": {"lat": 31.219739, "lng": 121.410356}, "address": "上海市长宁区玉屏南路五三七弄15", "province": "上海市", "city": "上海市", "area": "长宁区", "street_id": "0abdd33cfa5a2acba2d230e3", "detail": 1, "uid": "0abdd33cfa5a2acba2d230e3"}, {"compound_name": "申晨公寓", "link": "https://sh.lianjia.com/xiaoqu/5020026564756377/", "available_address": "长宁路1488弄16号, 长宁路1488弄16号甲", "year_of_construction": 1999, "building_type": "板楼", "management_company": "上海长宁物业管理", "developer_company": "长宁集团", "number_of_buildings": 2, "number_of_rooms": 24, "name": "长宁路1488弄31号", "location": {"lat": 31.224895, "lng": 121.415684}, "address": "长宁路1488弄16、16号甲、30-32号云都公寓附近", "province": "上海市", "city": "上海市", "area": "长宁区", "street_id": "56ed46ef6de5daca6cc02c78", "detail": 1, "uid": "56ed46ef6de5daca6cc02c78"}, {"compound_name": "紫虹大厦", "link": "https://sh.lianjia.com/xiaoqu/5011000017406/", "available_address": "中山西路800弄57号", "year_of_construction": 1996, "building_type": "板楼", "management_company": "紫虹物业", "developer_company": "上海八维房地产公司", "number_of_buildings": 1, "number_of_rooms": 145, "name": "紫虹大厦-停车场", "location": {"lat": 31.212121, "lng": 121.41631}, "address": "中山西路800弄57号", "province": "上海市", "city": "上海市", "area": "长宁区", "street_id": "4b07a0221fe972f99d9d684e", "detail": 1, "uid": "4b07a0221fe972f99d9d684e"}, {"compound_name": "沪东花苑", "link": "https://sh.lianjia.com/xiaoqu/5011000000907/", "available_address": "荷泽路25弄", "year_of_construction": 1995, "building_type": "板楼", "management_company": "船厂物业", "developer_company": "沪东船厂", "number_of_buildings": 15, "number_of_rooms": 216, "name": "荷泽路25弄", "location": {"lat": 31.279466, "lng": 121.596918}, "address": "浦东新区"}, {"compound_name": "古北公寓", "link": "https://sh.lianjia.com/xiaoqu/5011000015097/", "available_address": "古北路585号", "year_of_construction": 1995, "building_type": "板楼", "management_company": "上海古北物业管理有限公司", "developer_company": "上海古北(集团)有限公司", "number_of_buildings": 2, "number_of_rooms": 64, "name": "古北路585号", "location": {"lat": 31.213059, "lng": 121.40713}, "address": "长宁区"}, {"compound_name": "友谊小区", "link": "https://sh.lianjia.com/xiaoqu/5011000014322/", "available_address": "玉屏南路41弄, 玉屏南路113弄, 玉屏南路37号", "year_of_construction": 1982, "building_type": "板楼", "management_company": "长宁物业", "developer_company": "长宁开发", "number_of_buildings": 32, "number_of_rooms": 825, "name": "玉屏南路41弄-4号", "location": {"lat": 31.218207, "lng": 121.417035}, "address": "上海市长宁区玉屏南路41弄-2号", "province": "上海市", "city": "上海市", "area": "长宁区", "street_id": "2cf9335188ccb2e75b109351", "detail": 1, "uid": "2cf9335188ccb2e75b109351"}, {"compound_name": "天山路840弄", "link": "https://sh.lianjia.com/xiaoqu/5011102207873/", "available_address": "天山路840弄", "year_of_construction": 1965, "building_type": "板楼", "management_company": "仙霞物业", "developer_company": "长宁集团", "number_of_buildings": 4, "number_of_rooms": 130, "name": "天山路", "location": {"lat": 31.217779, "lng": 121.409858}, "address": "长宁区"}, {"compound_name": "长宁路1488弄3支弄", "link": "https://sh.lianjia.com/xiaoqu/5011000002342/", "available_address": "长宁路1488弄3支弄", "year_of_construction": 1982, "building_type": "板楼", "management_company": "长宁物业", "developer_company": "长宁集团", "number_of_buildings": 10, "number_of_rooms": 254, "name": "长宁路", "location": {"lat": 31.224703, "lng": 121.415839}, "address": "长宁区"}, {"compound_name": "上海青年城", "link": "https://sh.lianjia.com/xiaoqu/5011000013843/", "available_address": "沪松公路1399弄, 沪松公路1519弄18号, 沪松公路1519弄19号, 沪松公路1519弄", "year_of_construction": 2005, "building_type": "塔楼/板楼", "management_company": "申大物业管理有限公司", "developer_company": "中新集团", "number_of_buildings": 23, "number_of_rooms": 2421, "name": "沪松公路565弄28-29号", "location": {"lat": 31.15589, "lng": 121.349669}, "address": "上海市闵行区沪松公路(水清年华花园)", "province": "上海市", "city": "上海市", "area": "闵行区", "detail": 1, "uid": "5d345f4fb933b6b005026fe3"}, {"compound_name": "虹桥新城", "link": "https://sh.lianjia.com/xiaoqu/5011000016887/", "available_address": "长宁路1661弄1-50号", "year_of_construction": 2000, "building_type": "塔楼/板楼", "management_company": "上海新长宁集团天山物业有限公司", "developer_company": "上海市绿地集团置业有限公司", "number_of_buildings": 38, "number_of_rooms": 1314, "name": "长宁路1661弄18幢50号", "location": {"lat": 31.221781, "lng": 121.411842}, "address": "长宁路1661弄18幢50号", "province": "上海市", "city": "上海市", "area": "长宁区", "street_id": "390d12564b3a96f9b6147f30", "detail": 1, "uid": "390d12564b3a96f9b6147f30"}, {"compound_name": "遵义路757弄", "link": "https://sh.lianjia.com/xiaoqu/5011000006608/", "available_address": "遵义路757弄", "year_of_construction": 1991, "building_type": "板楼", "management_company": "上海新长宁集团", "developer_company": "长宁集团", "number_of_buildings": 10, "number_of_rooms": 234, "name": "遵义路757弄小区", "location": {"lat": 31.221341, "lng": 121.414802}, "address": "上海市长宁区遵义路与云雾山路交叉路口北侧(大孚新村小区)", "province": "上海市", "city": "上海市", "area": "长宁区", "street_id": "2f35df96d1bc15a4d518b718", "detail": 1, "uid": "2f35df96d1bc15a4d518b718"}, {"compound_name": "云雾山路15号", "link": "https://sh.lianjia.com/xiaoqu/5011000007043/", "available_address": "云雾山路15号", "year_of_construction": 1986, "building_type": "板楼", "management_company": "暂无信息", "developer_company": "万科房产", "number_of_buildings": 1, "number_of_rooms": 24, "name": "云雾山路15号", "location": {"lat": 31.220852, "lng": 121.413842}, "address": "长宁区"}, {"compound_name": "遵义小区", "link": "https://sh.lianjia.com/xiaoqu/5011000009584/", "available_address": "天山三村1-49号,遵义路780弄", "year_of_construction": 1977, "building_type": "板楼", "management_company": "上海新长宁集团新程物业有限公司", "developer_company": "上海新长宁(集团)有限公司", "number_of_buildings": 26, "number_of_rooms": 449, "name": "遵义路780弄", "location": {"lat": 31.220579, "lng": 121.415461}, "address": "长宁区"}, {"compound_name": "中山西路644号", "link": "https://sh.lianjia.com/xiaoqu/5011000006345/", "available_address": "中山西路644号", "year_of_construction": 1981, "building_type": "板楼", "management_company": "上海新长宁集团新程物业有限公司", "developer_company": "长宁集团", "number_of_buildings": 1, "number_of_rooms": 42, "name": "中山西路644号", "location": {"lat": 31.21625, "lng": 121.418758}, "address": "长宁区"}, {"compound_name": "万航渡路2502号", "link": "https://sh.lianjia.com/xiaoqu/5011000007023/", "available_address": "万航渡路2502号", "year_of_construction": 1987, "building_type": "板楼", "management_company": "上海新长宁集团华阳物业有限公司", "developer_company": "长宁集团", "number_of_buildings": 1, "number_of_rooms": 30, "name": "万航渡路2500号", "location": {"lat": 31.226055, "lng": 121.412125}, "address": "上海市长宁区万航渡路2510号强家渡小区附近", "province": "上海市", "city": "上海市", "area": "长宁区", "street_id": "6d7c7811c956893ac8213d8b", "detail": 1, "uid": "6d7c7811c956893ac8213d8b"}, {"compound_name": "长宁路1488弄", "link": "https://sh.lianjia.com/xiaoqu/5011000006566/", "available_address": "长宁路1488弄4、17、19-27、33-45号", "year_of_construction": 1988, "building_type": "板楼", "management_company": "上海长宁物业管理公司", "developer_company": "长宁开发", "number_of_buildings": 15, "number_of_rooms": 376, "name": "长宁路1488弄-27号", "location": {"lat": 31.22467, "lng": 121.415215}, "address": "长宁路1488号附近", "province": "上海市", "city": "上海市", "area": "长宁区", "street_id": "2fa09bd58eadd831d9eced85", "detail": 1, "uid": "2fa09bd58eadd831d9eced85"}, {"compound_name": "天山二村", "link": "https://sh.lianjia.com/xiaoqu/5011000003879/", "available_address": "娄山关路114弄,茅台路51号,天山二村", "year_of_construction": 1954, "building_type": "板楼", "management_company": "上海申达物业发展公司", "developer_company": "北依", "number_of_buildings": 109, "number_of_rooms": 2275, "name": "天山二村小区", "location": {"lat": 31.215873, "lng": 121.412167}, "address": "上海市长宁区天山二村8-70号", "province": "上海市", "city": "上海市", "area": "长宁区", "street_id": "7d5f3a0a561e4a482cb9083f", "detail": 1, "uid": "7d5f3a0a561e4a482cb9083f"}, {"compound_name": "虹桥河滨花园", "link": "https://sh.lianjia.com/xiaoqu/5011000018371/", "available_address": "长宁路1898弄", "year_of_construction": 2004, "building_type": "板楼", "management_company": "上海同涞物业管理有限公司", "developer_company": "上海上科实业有限公司", "number_of_buildings": 9, "number_of_rooms": 637, "name": "长宁路1898弄1号", "location": {"lat": 31.224926, "lng": 121.407824}, "address": "上海市长宁区长宁路虹桥河滨公园(春天花园西北)", "province": "上海市", "city": "上海市", "area": "长宁区", "street_id": "ef872ff055ae0de95abbbc33", "detail": 1, "uid": "ef872ff055ae0de95abbbc33"}, {"compound_name": "春天花园", "link": "https://sh.lianjia.com/xiaoqu/5011000017999/", "available_address": "娄山关路999弄", "year_of_construction": 2003, "building_type": "塔楼/板楼/平房", "management_company": "上海上实金马物业管理有限公司", "developer_company": "上海东方金马房地产有限公司", "number_of_buildings": 77, "number_of_rooms": 1985, "name": "春天花园", "location": {"lat": 31.223018, "lng": 121.409956}, "address": "上海市长宁区娄山关路999弄", "province": "上海市", "city": "上海市", "area": "长宁区", "street_id": "46e86fdd81b66d76d03ce3ad", "detail": 1, "uid": "46e86fdd81b66d76d03ce3ad"}, {"compound_name": "新世纪广场", "link": "https://sh.lianjia.com/xiaoqu/5011000017993/", "available_address": "兴义路48号", "year_of_construction": 1995, "building_type": "板楼", "management_company": "上海锦江物业管理公司", "developer_company": "金马控股集团", "number_of_buildings": 4, "number_of_rooms": 306, "name": "兴义路48号", "location": {"lat": 31.210281, "lng": 121.410439}, "address": "长宁区"}, {"compound_name": "虹桥豪苑", "link": "https://sh.lianjia.com/xiaoqu/5011000017299/", "available_address": "紫云路118弄", "year_of_construction": 2006, "building_type": "板楼", "management_company": "上海仁恒物业管理有限公司", "developer_company": "上海华天房地产发展有限公司", "number_of_buildings": 8, "number_of_rooms": 801, "name": "紫云路118弄", "location": {"lat": 31.213287, "lng": 121.415825}, "address": "长宁区"}]