[{"compound_name": "太阳广场", "link": "https://sh.lianjia.com/xiaoqu/5011000017218/", "available_address": "仙霞路88号", "year_of_construction": 1995, "building_type": "塔楼", "management_company": "上海永联物业管理咨询有限公司", "developer_company": "上海爱民投资有限公司", "number_of_buildings": 2, "number_of_rooms": 392, "name": "仙霞路88号", "location": {"lat": 31.211377, "lng": 121.410415}, "address": "长宁区"}, {"compound_name": "复光苑", "link": "https://sh.lianjia.com/xiaoqu/5011000015247/", "available_address": "武东路28弄", "year_of_construction": 2004, "building_type": "板楼", "management_company": "上海一达物业", "developer_company": "上海一达房地产开发经营有限公司", "number_of_buildings": 14, "number_of_rooms": 358, "name": "复光苑", "location": {"lat": 31.308515, "lng": 121.506223}, "address": "上海市杨浦区武东路28弄2-16号", "province": "上海市", "city": "上海市", "area": "杨浦区", "street_id": "38e48037274cf148373a7127", "detail": 1, "uid": "38e48037274cf148373a7127"}, {"compound_name": "金钟小区", "link": "https://sh.lianjia.com/xiaoqu/5011000010603/", "available_address": "金钟路428弄", "year_of_construction": 1995, "building_type": "板楼", "management_company": "春纺小区物业", "developer_company": "无开发商", "number_of_buildings": 43, "number_of_rooms": 632, "name": "金钟路428弄", "location": {"lat": 31.22619, "lng": 121.370068}, "address": "长宁区"}, {"compound_name": "绿园十村", "link": "https://sh.lianjia.com/xiaoqu/5011000008225/", "available_address": "福泉路385弄1-52号", "year_of_construction": 1995, "building_type": "板楼", "management_company": "上海绿安物业管理发展有限公司", "developer_company": "上海市绿地集团置业有限公司", "number_of_buildings": 47, "number_of_rooms": 636, "name": "385弄", "location": {"lat": 31.21323, "lng": 121.365941}, "address": "长宁区"}, {"compound_name": "虹桥豪苑", "link": "https://sh.lianjia.com/xiaoqu/5011000017299/", "available_address": "紫云路118弄", "year_of_construction": 2006, "building_type": "板楼", "management_company": "上海仁恒物业管理有限公司", "developer_company": "上海华天房地产发展有限公司", "number_of_buildings": 8, "number_of_rooms": 801, "name": "紫云路118弄", "location": {"lat": 31.213287, "lng": 121.415825}, "address": "长宁区"}, {"compound_name": "兴霞小区", "link": "https://sh.lianjia.com/xiaoqu/5011000014040/", "available_address": "仙霞路1331弄1-18号", "year_of_construction": 1998, "building_type": "板楼", "management_company": "上海新长宁集团仙霞物业管理有限公司", "developer_company": "上海新长宁集团有限公司", "number_of_buildings": 18, "number_of_rooms": 197, "name": "仙霞路1331弄18号", "location": {"lat": 31.213997, "lng": 121.379942}, "address": "上海市长宁区仙霞路兴霞小区(仙霞大郡附近)", "province": "上海市", "city": "上海市", "area": "长宁区", "street_id": "5515b34f8ef12f68f942b211", "detail": 1, "uid": "5515b34f8ef12f68f942b211"}, {"compound_name": "瑞冬小区", "link": "https://sh.lianjia.com/xiaoqu/5011000005325/", "available_address": "平塘路408弄2-30号, 平塘路424弄2-48号, 泉口路180弄1-39号, 剑河路419弄1-41号, 剑河路409弄1-27号, 剑河路421号, 剑河路417号", "year_of_construction": 1994, "building_type": "板楼", "management_company": "上海新凯物业管理公司", "developer_company": "上海新长宁（集团）有限公司", "number_of_buildings": 109, "number_of_rooms": 2201, "name": "平塘路424弄-42号", "location": {"lat": 31.220665, "lng": 121.37186}, "address": "平塘路406号附近", "province": "上海市", "city": "上海市", "area": "长宁区", "street_id": "d46168567cd86442b9df8fb1", "detail": 1, "uid": "d46168567cd86442b9df8fb1"}, {"compound_name": "中紫小区", "link": "https://sh.lianjia.com/xiaoqu/5011000015078/", "available_address": "中山西路800弄1-53号", "year_of_construction": 1966, "building_type": "塔楼/板楼", "management_company": "上海八维物业公司", "developer_company": "上海八维房地产公司", "number_of_buildings": 21, "number_of_rooms": 1332, "name": "中山西路800弄51号", "location": {"lat": 31.21347, "lng": 121.417167}, "address": "中山西路800弄51号", "province": "上海市", "city": "上海市", "area": "长宁区", "street_id": "9559ca7070dabff649fd3f5c", "detail": 1, "uid": "9559ca7070dabff649fd3f5c"}, {"compound_name": "中冶祥腾宝月花园", "link": "https://sh.lianjia.com/xiaoqu/5011000000617/", "available_address": "月塘路268弄", "year_of_construction": 2012, "building_type": "板楼", "management_company": "上海宝月物业管理有限责任公司", "developer_company": "中冶集团", "number_of_buildings": 30, "number_of_rooms": 908, "name": "268弄", "location": {"lat": 31.429312, "lng": 121.41875}, "address": ""}, {"compound_name": "衡辰公寓", "link": "https://sh.lianjia.com/xiaoqu/5011000014986/", "available_address": "天山路338弄", "year_of_construction": 2007, "building_type": "塔楼", "management_company": "上海古北物业管理有限公司", "developer_company": "暂无信息", "number_of_buildings": 6, "number_of_rooms": 597, "name": "338弄", "location": {"lat": 31.220934, "lng": 121.393591}, "address": ""}, {"compound_name": "虹桥万博花园", "link": "https://sh.lianjia.com/xiaoqu/5011000016889/", "available_address": "古北路69弄", "year_of_construction": 2004, "building_type": "板楼", "management_company": "上海新长宁集团华阳物业有限公司", "developer_company": "上海万博房地产开发有限公司", "number_of_buildings": 17, "number_of_rooms": 1193, "name": "长宁区周家桥街道虹桥万博花园居委会", "location": {"lat": 31.222889, "lng": 121.405855}, "address": "上海市长宁区古北路69弄16号101室", "province": "上海市", "city": "上海市", "area": "长宁区", "detail": 1, "uid": "33fd9c57b3b9a5576b49f314"}, {"compound_name": "天山路1726弄", "link": "https://sh.lianjia.com/xiaoqu/5011000000679/", "available_address": "天山路1726弄", "year_of_construction": 1986, "building_type": "板楼", "management_company": "上海新长宁集团新程物业有限公司", "developer_company": "长宁集团", "number_of_buildings": 10, "number_of_rooms": 210, "name": "天山路1726弄小区", "location": {"lat": 31.216906, "lng": 121.415678}, "address": "上海市长宁区天山路与遵义路交叉口东150米", "province": "上海市", "city": "上海市", "area": "长宁区", "street_id": "e52ff23685500735e812e4b3", "detail": 1, "uid": "e52ff23685500735e812e4b3"}, {"compound_name": "杜家宅小区", "link": "https://sh.lianjia.com/xiaoqu/5011000015093/", "available_address": "茅台路460弄,新渔东路11-19号（单号）,新渔东路25-35号（单号）", "year_of_construction": 1984, "building_type": "板楼", "management_company": "仙霞物业", "developer_company": "长宁开发", "number_of_buildings": 41, "number_of_rooms": 804, "name": "茅台路460弄-26号", "location": {"lat": 31.216555, "lng": 121.401363}, "address": "茅台路336号附近", "province": "上海市", "city": "上海市", "area": "长宁区", "street_id": "0617dfc44af9df76bda2403d", "detail": 1, "uid": "0617dfc44af9df76bda2403d"}, {"compound_name": "圣天地服务式公寓", "link": "https://sh.lianjia.com/xiaoqu/5011000017586/", "available_address": "江宁路1145弄, 新会路34号", "year_of_construction": 2004, "building_type": "塔楼/塔板结合", "management_company": "上海世纪商务大厦物业管理有限公司", "developer_company": "上海荣联房地产有限公司", "number_of_buildings": 2, "number_of_rooms": 1270, "name": "江宁路", "location": {"lat": 31.249287, "lng": 121.450001}, "address": "普陀区"}, {"compound_name": "金虹苑小区", "link": "https://sh.lianjia.com/xiaoqu/5011000012719/", "available_address": "剑河路599弄", "year_of_construction": 1995, "building_type": "板楼", "management_company": "金虹苑小区物业公司", "developer_company": "长宁区开发商", "number_of_buildings": 88, "number_of_rooms": 1137, "name": "剑河路599弄", "location": {"lat": 31.212706, "lng": 121.375781}, "address": "长宁区"}, {"compound_name": "长宁路1600弄", "link": "https://sh.lianjia.com/xiaoqu/5011000006829/", "available_address": "长宁路1600弄", "year_of_construction": 1976, "building_type": "板楼", "management_company": "上海新长宁集团华阳物业有限公司", "developer_company": "长宁集团", "number_of_buildings": 24, "number_of_rooms": 755, "name": "长宁路1600弄", "location": {"lat": 31.223935, "lng": 121.413846}, "address": "长宁区"}, {"compound_name": "新安小区", "link": "https://sh.lianjia.com/xiaoqu/5011000014967/", "available_address": "茅台路690弄", "year_of_construction": 1989, "building_type": "板楼", "management_company": "上海申达物业发展公司", "developer_company": "上海新长宁（集团）有限公司", "number_of_buildings": 33, "number_of_rooms": 618, "name": "茅台路", "location": {"lat": 31.216584, "lng": 121.393995}, "address": "长宁区"}, {"compound_name": "科宁公寓", "link": "https://sh.lianjia.com/xiaoqu/5011000014108/", "available_address": "中山西路340号,中山西路430号,中山西路450号", "year_of_construction": 1991, "building_type": "塔楼/板楼", "management_company": "上海新长宁集团新程物业有限公司", "developer_company": "上海新长宁（集团）有限公司", "number_of_buildings": 3, "number_of_rooms": 766, "name": "中山西路450号", "location": {"lat": 31.22037, "lng": 121.417767}, "address": "长宁区"}, {"compound_name": "绿园五村", "link": "https://sh.lianjia.com/xiaoqu/5011000012377/", "available_address": "淞虹路1005弄", "year_of_construction": 1996, "building_type": "板楼", "management_company": "上海达安物业管理有限公司", "developer_company": "上海新长宁（集团）有限公司", "number_of_buildings": 71, "number_of_rooms": 950, "name": "淞虹路1005弄", "location": {"lat": 31.208579, "lng": 121.369853}, "address": "长宁区"}, {"compound_name": "新泾苑", "link": "https://sh.lianjia.com/xiaoqu/5011000009075/", "available_address": "中泾路18弄", "year_of_construction": 1999, "building_type": "板楼", "management_company": "上海绿安物业管理发展有限公司", "developer_company": "绿城集团", "number_of_buildings": 85, "number_of_rooms": 1014, "name": "中泾路18弄", "location": {"lat": 31.206276, "lng": 121.369217}, "address": "长宁区"}, {"compound_name": "康泰新城", "link": "https://sh.lianjia.com/xiaoqu/5011000016498/", "available_address": "华灵路1885弄,华灵路1895弄,真金路1039弄", "year_of_construction": 1999, "building_type": "板楼", "management_company": "大华物业", "developer_company": "大华集团上海华宜置业有限公司", "number_of_buildings": 262, "number_of_rooms": 3426, "name": "真金路1039弄", "location": {"lat": 31.288249, "lng": 121.41083}, "address": "宝山区"}, {"compound_name": "淞虹公寓", "link": "https://sh.lianjia.com/xiaoqu/5011000016081/", "available_address": "福泉路255弄", "year_of_construction": 1998, "building_type": "塔楼/板楼", "management_company": "上海绿安物业管理发展有限公司", "developer_company": "上海市绿地集团置业有限公司", "number_of_buildings": 63, "number_of_rooms": 934, "name": "福泉路255弄", "location": {"lat": 31.218703, "lng": 121.365261}, "address": "长宁区"}, {"compound_name": "绿园一村", "link": "https://sh.lianjia.com/xiaoqu/5011000015294/", "available_address": "淞虹路685弄, 甘溪路368弄", "year_of_construction": 1994, "building_type": "板楼", "management_company": "上海新凯物业管理公司", "developer_company": "绿城集团", "number_of_buildings": 92, "number_of_rooms": 1522, "name": "绿园一村社区", "location": {"lat": 31.219912, "lng": 121.366227}, "address": "淞虹路685弄", "province": "上海市", "city": "上海市", "area": "长宁区", "street_id": "5e75aa45bda069f6100daa69", "detail": 1, "uid": "5e75aa45bda069f6100daa69"}, {"compound_name": "仁恒滨江园", "link": "https://sh.lianjia.com/xiaoqu/5011000017860/", "available_address": "浦明路99弄（一、二期）,浦城路99弄（三期）", "year_of_construction": 1998, "building_type": "塔楼/板楼/塔板结合", "management_company": "上海仁恒物业管理有限公司", "developer_company": "上海仁恒房地产有限公司", "number_of_buildings": 43, "number_of_rooms": 2110, "name": "浦明路99弄-11号", "location": {"lat": 31.233758, "lng": 121.514056}, "address": "商城路99号附近", "province": "上海市", "city": "上海市", "area": "浦东新区", "street_id": "f1b4402186a1f45d86420e21", "detail": 1, "uid": "f1b4402186a1f45d86420e21"}, {"compound_name": "虹纺小区", "link": "https://sh.lianjia.com/xiaoqu/5011000014990/", "available_address": "虹古路369弄, 虹古路375号, 虹古路377弄, 虹古路377弄30支弄, 虹古路371号, 虹古路367号, 虹古路363号", "year_of_construction": 1987, "building_type": "板楼", "management_company": "上海吉兴物业管理有限公司", "developer_company": "上海新长宁（集团）有限公司", "number_of_buildings": 61, "number_of_rooms": 1329, "name": "虹古路377弄-37号", "location": {"lat": 31.207301, "lng": 121.395976}, "address": "虹古路377弄37号", "province": "上海市", "city": "上海市", "area": "长宁区", "street_id": "69e5c5f99cd262ceabf729d8", "detail": 1, "uid": "69e5c5f99cd262ceabf729d8"}, {"compound_name": "仙逸小区", "link": "https://sh.lianjia.com/xiaoqu/5011000017296/", "available_address": "水城路386弄, 水城路388弄, 水城路408弄, 水城路450弄, 仙霞路415弄, 仙霞路435弄, 仙霞路451弄, 水城路414弄, 仙霞路471弄", "year_of_construction": 1983, "building_type": "板楼", "management_company": "上海新长宁集团仙霞物业有限公司", "developer_company": "上海新长宁(集团)有限公司", "number_of_buildings": 102, "number_of_rooms": 2655, "name": "水城路388弄3号", "location": {"lat": 31.213302, "lng": 121.397624}, "address": "水城路388弄3号", "province": "上海市", "city": "上海市", "area": "长宁区", "street_id": "7b8acb2bdeeafdaaa8059d8f", "detail": 1, "uid": "7b8acb2bdeeafdaaa8059d8f"}, {"compound_name": "永清新村", "link": "https://sh.lianjia.com/xiaoqu/5011000012529/", "available_address": "永清新村", "year_of_construction": 1987, "building_type": "板楼", "management_company": "新寓物业", "developer_company": "宝辰集团控股有限公司", "number_of_buildings": 190, "number_of_rooms": 2562, "name": "永清新村小区", "location": {"lat": 31.39679, "lng": 121.504638}, "address": "上海市宝山区双城路(永清新村幼儿园西侧)", "province": "上海市", "city": "上海市", "area": "宝山区", "street_id": "f44609182e33ed6bb11e367f", "detail": 1, "uid": "f44609182e33ed6bb11e367f"}, {"compound_name": "保屯路50弄", "link": "https://sh.lianjia.com/xiaoqu/5011000007005/", "available_address": "保屯路50弄", "year_of_construction": 1978, "building_type": "板楼", "management_company": "南弘置业", "developer_company": "南房集团", "number_of_buildings": 12, "number_of_rooms": 306, "name": "保屯路50弄小区", "location": {"lat": 31.211889, "lng": 121.496315}, "address": "上海市黄浦区保屯路50弄1-12号", "province": "上海市", "city": "上海市", "area": "黄浦区", "street_id": "b126e15af0e35b81acee7a02", "detail": 1, "uid": "b126e15af0e35b81acee7a02"}, {"compound_name": "天山二村", "link": "https://sh.lianjia.com/xiaoqu/5011000003879/", "available_address": "娄山关路114弄,茅台路51号,天山二村", "year_of_construction": 1954, "building_type": "板楼", "management_company": "上海申达物业发展公司", "developer_company": "北依", "number_of_buildings": 109, "number_of_rooms": 2275, "name": "天山二村小区", "location": {"lat": 31.215873, "lng": 121.412167}, "address": "上海市长宁区天山二村8-70号", "province": "上海市", "city": "上海市", "area": "长宁区", "street_id": "7d5f3a0a561e4a482cb9083f", "detail": 1, "uid": "7d5f3a0a561e4a482cb9083f"}, {"compound_name": "紫竹小区", "link": "https://sh.lianjia.com/xiaoqu/5011000017886/", "available_address": "剑河路404弄,剑河路408弄,剑河路414弄", "year_of_construction": 1994, "building_type": "板楼", "management_company": "上海长宁物业管理", "developer_company": "上海建工房产有限公司", "number_of_buildings": 74, "number_of_rooms": 1398, "name": "剑河路414弄-4号", "location": {"lat": 31.219846, "lng": 121.37496}, "address": "剑河路412号附近", "province": "上海市", "city": "上海市", "area": "长宁区", "street_id": "d182be8a0b27e7970289720b", "detail": 1, "uid": "d182be8a0b27e7970289720b"}, {"compound_name": "铭晖西郊苑", "link": "https://sh.lianjia.com/xiaoqu/5011000016690/", "available_address": "哈密路398弄", "year_of_construction": 2000, "building_type": "板楼", "management_company": "中星物业", "developer_company": "上海铭晖房地产经营有限公司", "number_of_buildings": 49, "number_of_rooms": 644, "name": "哈密路398弄", "location": {"lat": 31.217783, "lng": 121.381807}, "address": "长宁区"}, {"compound_name": "仙乐小区", "link": "https://sh.lianjia.com/xiaoqu/5011000009402/", "available_address": "仙霞路430弄,仙霞路432号", "year_of_construction": 1985, "building_type": "板楼", "management_company": "上海新长宁集团仙霞物业有限公司", "developer_company": "上海西上海上食科技发展有限公司", "number_of_buildings": 10, "number_of_rooms": 297, "name": "仙霞路432号", "location": {"lat": 31.211338, "lng": 121.400374}, "address": "上海市长宁区仙霞路432号", "province": "上海市", "city": "上海市", "area": "长宁区", "street_id": "0d18aac50235b81caeb22a52", "detail": 1, "uid": "0d18aac50235b81caeb22a52"}, {"compound_name": "虹康花苑(一期)", "link": "https://sh.lianjia.com/xiaoqu/5020021434144928/", "available_address": "仙霞西路500弄", "year_of_construction": 1999, "building_type": "板楼", "management_company": "上海虹康物业管理有限公司", "developer_company": "暂无信息", "number_of_buildings": 71, "number_of_rooms": 890, "name": "仙霞西路", "location": {"lat": 31.214787, "lng": 121.370997}, "address": "长宁区"}, {"compound_name": "新风小区", "link": "https://sh.lianjia.com/xiaoqu/5011000014930/", "available_address": "古北路181弄,古北路211弄,玉屏南路731弄,玉屏南路723号", "year_of_construction": 1981, "building_type": "板楼", "management_company": "上海古北物业管理有限公司虹桥分公司", "developer_company": "古北集团", "number_of_buildings": 51, "number_of_rooms": 1072, "name": "古北路181弄-16号", "location": {"lat": 31.220213, "lng": 121.4074}, "address": "上海市长宁区玉屏南路725-3附近", "province": "上海市", "city": "上海市", "area": "长宁区", "street_id": "7c1be6cef6e050ac3517dcc1", "detail": 1, "uid": "7c1be6cef6e050ac3517dcc1"}, {"compound_name": "天申小区", "link": "https://sh.lianjia.com/xiaoqu/5011000014929/", "available_address": "北虹路1000弄", "year_of_construction": 1997, "building_type": "板楼", "management_company": "上海纺原物业有限公司", "developer_company": "绿城集团", "number_of_buildings": 43, "number_of_rooms": 494, "name": "天申小区", "location": {"lat": 31.219108, "lng": 121.384145}, "address": "上海市长宁区北虹路1000弄", "province": "上海市", "city": "上海市", "area": "长宁区", "street_id": "f3c2373c873dc42cd22dd671", "detail": 1, "uid": "f3c2373c873dc42cd22dd671"}, {"compound_name": "新泾五村", "link": "https://sh.lianjia.com/xiaoqu/5011000016005/", "available_address": "金钟路255弄,天山西路350弄", "year_of_construction": 1994, "building_type": "塔楼/板楼", "management_company": "上海新长宁（集团）有限公司", "developer_company": "上海新长宁（集团）有限公司", "number_of_buildings": 73, "number_of_rooms": 1480, "name": "新泾五村社区-北门", "location": {"lat": 31.225267, "lng": 121.373058}, "address": "天山西路350弄1-62号后门;金钟路255弄1-28号", "province": "上海市", "city": "上海市", "area": "长宁区", "street_id": "6808ae49499166a99e82ea8c", "detail": 1, "uid": "6808ae49499166a99e82ea8c"}, {"compound_name": "华松西区（仙霞西路700弄）", "link": "https://sh.lianjia.com/xiaoqu/5011000004110/", "available_address": "仙霞西路700弄, 仙霞西路692号", "year_of_construction": 1994, "building_type": "板楼", "management_company": "凯昌物业", "developer_company": "长宁集团", "number_of_buildings": 95, "number_of_rooms": 1443, "name": "仙霞西路700弄-1号", "location": {"lat": 31.215275, "lng": 121.364797}, "address": "上海市长宁区仙霞西路七00弄1", "province": "上海市", "city": "上海市", "area": "长宁区", "street_id": "3b3abbddc1eab9fadfee8bae", "detail": 1, "uid": "3b3abbddc1eab9fadfee8bae"}, {"compound_name": "长联大厦", "link": "https://sh.lianjia.com/xiaoqu/5011000015789/", "available_address": "中山西路666号", "year_of_construction": 1992, "building_type": "塔楼", "management_company": "上海长宁周家桥物业公司", "developer_company": "上海新长宁集团有限公司", "number_of_buildings": 1, "number_of_rooms": 170, "name": "中山西路666号", "location": {"lat": 31.214876, "lng": 121.418298}, "address": "长宁区"}, {"compound_name": "富锦路1659弄", "link": "https://sh.lianjia.com/xiaoqu/5011000007993/", "available_address": "富锦路1659弄", "year_of_construction": 1995, "building_type": "板楼", "management_company": "上海宝冶物业有限公司", "developer_company": "暂无信息", "number_of_buildings": 44, "number_of_rooms": 524, "name": "富锦路1659弄小区", "location": {"lat": 31.4103, "lng": 121.44456}, "address": "上海市宝山区富锦路1659弄", "province": "上海市", "city": "上海市", "area": "宝山区", "street_id": "20bf020d958d0a97a0acc4f0", "detail": 1, "uid": "20bf020d958d0a97a0acc4f0"}, {"compound_name": "天山河畔花园", "link": "https://sh.lianjia.com/xiaoqu/5011000016893/", "available_address": "水城路883弄", "year_of_construction": 2004, "building_type": "板楼", "management_company": "上海陆家嘴物业管理有限公司", "developer_company": "上海宁新房地产开发有限公司", "number_of_buildings": 25, "number_of_rooms": 2016, "name": "883弄", "location": {"lat": 31.221975, "lng": 121.396659}, "address": ""}, {"compound_name": "可乐公馆", "link": "https://sh.lianjia.com/xiaoqu/5011000010807/", "available_address": "福泉路418号", "year_of_construction": 1999, "building_type": "板楼", "management_company": "暂无信息", "developer_company": "暂无信息", "number_of_buildings": 1, "number_of_rooms": 443, "name": "福泉路418号", "location": {"lat": 31.211979, "lng": 121.366573}, "address": "长宁区"}, {"compound_name": "知雅园", "link": "https://sh.lianjia.com/xiaoqu/5011000013492/", "available_address": "新渔东路456弄", "year_of_construction": 2009, "building_type": "板楼", "management_company": "上海优联物业管理有限公司", "developer_company": "上海新长宁（集团）有限公司", "number_of_buildings": 8, "number_of_rooms": 356, "name": "上海市长宁区知雅园业主委员会", "location": {"lat": 31.219522, "lng": 121.390293}, "address": "新渔东路456弄1-8号舜元知雅园附近", "province": "上海市", "city": "上海市", "area": "长宁区", "street_id": "e03d2d9c15e249dc6ca3cc10", "detail": 1, "uid": "e03d2d9c15e249dc6ca3cc10"}, {"compound_name": "新泾一村", "link": "https://sh.lianjia.com/xiaoqu/5011000013315/", "available_address": "新泾一村,新泾一村160-173号201-226号（绿新小区）", "year_of_construction": 1983, "building_type": "板楼", "management_company": "上海新长宁集团新程物业有限公司", "developer_company": "市政开发公司", "number_of_buildings": 108, "number_of_rooms": 2168, "name": "新泾一村-226号楼", "location": {"lat": 31.224203, "lng": 121.379057}, "address": "新泾一村226号楼", "province": "上海市", "city": "上海市", "area": "长宁区", "street_id": "63b687cf18ee5e8f3fe23164", "detail": 1, "uid": "63b687cf18ee5e8f3fe23164"}, {"compound_name": "河风丽景", "link": "https://sh.lianjia.com/xiaoqu/5011000015544/", "available_address": "天山路88弄", "year_of_construction": 2004, "building_type": "板楼", "management_company": "上海博嘉物业有限公司", "developer_company": "上海元丰房地产经营有限公司", "number_of_buildings": 33, "number_of_rooms": 1638, "name": "河风丽景", "location": {"lat": 31.222816, "lng": 121.385587}, "address": "河风丽景位于长宁天山路88弄(双流路口)", "province": "上海市", "city": "上海市", "area": "长宁区", "street_id": "7820809173bf2e67c036445c", "detail": 1, "uid": "7820809173bf2e67c036445c"}, {"compound_name": "沁秋小区", "link": "https://sh.lianjia.com/xiaoqu/5011000013114/", "available_address": "淞虹路715弄,淞虹路735弄", "year_of_construction": 1995, "building_type": "板楼", "management_company": "上海绿安物业管理发展有限公司", "developer_company": "上海新长宁（集团）有限公司", "number_of_buildings": 38, "number_of_rooms": 884, "name": "淞虹路735弄-10号", "location": {"lat": 31.215826, "lng": 121.36853}, "address": "淞虹路715号附近", "province": "上海市", "city": "上海市", "area": "长宁区", "street_id": "355bfa15fd79611bc9fa5f32", "detail": 1, "uid": "355bfa15fd79611bc9fa5f32"}, {"compound_name": "鸿福新村", "link": "https://sh.lianjia.com/xiaoqu/5011000007763/", "available_address": "同乐路151弄", "year_of_construction": 1994, "building_type": "板楼", "management_company": "上海强生物业公司", "developer_company": "上海强生房产有限公司", "number_of_buildings": 35, "number_of_rooms": 667, "name": "同乐路151弄", "location": {"lat": 31.13029, "lng": 121.425036}, "address": "闵行区"}, {"compound_name": "中信泰富又一城", "link": "https://sh.lianjia.com/xiaoqu/5011000009663/", "available_address": "云屏路388弄,云屏路518弄,云谷路599弄", "year_of_construction": 2011, "building_type": "塔楼/板楼/塔板结合", "management_company": "中信泰富（上海）物业管理有限公司", "developer_company": "上海嘉逸房地产开发有限公司", "number_of_buildings": 26, "number_of_rooms": 3550, "name": "云谷路599弄", "location": {"lat": 31.339427, "lng": 121.259916}, "address": "嘉定区"}, {"compound_name": "连城一号", "link": "https://sh.lianjia.com/xiaoqu/5011000002447/", "available_address": "沪杭公路228弄, 沪杭公路222弄, 沪杭公路234号, 沪杭公路236号, 沪杭公路246号, 沪杭公路248号", "year_of_construction": 2011, "building_type": "塔楼", "management_company": "百马商业经营管理有限公司", "developer_company": "上海奉通置业有限公司", "number_of_buildings": 15, "number_of_rooms": 1616, "name": "沪杭公路", "location": {"lat": 30.995592, "lng": 121.438842}, "address": "上海市", "province": "上海市", "city": "上海市", "area": "", "detail": 0, "uid": "30df473c98d5a0218b2fb5f3"}, {"compound_name": "虹桥新城", "link": "https://sh.lianjia.com/xiaoqu/5011000016887/", "available_address": "长宁路1661弄1-50号", "year_of_construction": 2000, "building_type": "塔楼/板楼", "management_company": "上海新长宁集团天山物业有限公司", "developer_company": "上海市绿地集团置业有限公司", "number_of_buildings": 38, "number_of_rooms": 1314, "name": "长宁路1661弄18幢50号", "location": {"lat": 31.221781, "lng": 121.411842}, "address": "长宁路1661弄18幢50号", "province": "上海市", "city": "上海市", "area": "长宁区", "street_id": "390d12564b3a96f9b6147f30", "detail": 1, "uid": "390d12564b3a96f9b6147f30"}, {"compound_name": "茅台花苑", "link": "https://sh.lianjia.com/xiaoqu/5011000017567/", "available_address": "茅台路500弄2-9号", "year_of_construction": 1993, "building_type": "塔楼", "management_company": "上海纺原物业有限公司", "developer_company": "上海中星（集团）有限公司", "number_of_buildings": 6, "number_of_rooms": 1404, "name": "茅台路500弄-2号", "location": {"lat": 31.216145, "lng": 121.398622}, "address": "上海市长宁区仙霞新村街道茅台路500", "province": "上海市", "city": "上海市", "area": "长宁区", "street_id": "5fe538d011d40666373a71ff", "detail": 1, "uid": "5fe538d011d40666373a71ff"}, {"compound_name": "富特四村", "link": "https://sh.lianjia.com/xiaoqu/5011000012369/", "available_address": "夏碧路80弄4-36,季景路19弄3-78", "year_of_construction": 1993, "building_type": "板楼", "management_company": "上海外高桥物业管理有限公司", "developer_company": "上海外高桥保税区联合发展有限公司", "number_of_buildings": 105, "number_of_rooms": 1446, "name": "夏碧路/季景路(路口)", "location": {"lat": 31.344395, "lng": 121.594246}, "address": "上海市浦东新区季景路", "province": "上海市", "city": "上海市", "area": "浦东新区", "street_id": "0d07dc8ef23d36213b221c44", "detail": 1, "uid": "0d07dc8ef23d36213b221c44"}, {"compound_name": "延吉东路131弄", "link": "https://sh.lianjia.com/xiaoqu/5011000002571/", "available_address": "延吉东路131弄", "year_of_construction": 1987, "building_type": "板楼", "management_company": "上海申通物业管理有限公司", "developer_company": "上海龙申房地产发展有限公司", "number_of_buildings": 54, "number_of_rooms": 1356, "name": "延吉东路131弄", "location": {"lat": 31.300193, "lng": 121.551487}, "address": "杨浦区"}, {"compound_name": "古宋小区", "link": "https://sh.lianjia.com/xiaoqu/5011000016677/", "available_address": "茅台路600弄", "year_of_construction": 1987, "building_type": "板楼", "management_company": "上海新长宁集团仙霞物业管理有限公司", "developer_company": "三强实业集团", "number_of_buildings": 62, "number_of_rooms": 876, "name": "古宋小区", "location": {"lat": 31.216839, "lng": 121.395782}, "address": "新渔东路231号临,茅台路600弄1-75单号,2-60双号", "province": "上海市", "city": "上海市", "area": "长宁区", "street_id": "4642844a6d8dc0d8c9fa5f1d", "detail": 1, "uid": "4642844a6d8dc0d8c9fa5f1d"}, {"compound_name": "广中小区", "link": "https://sh.lianjia.com/xiaoqu/5011000014663/", "available_address": "广中路561弄,广中路547弄", "year_of_construction": 1996, "building_type": "板楼", "management_company": "海存物业", "developer_company": "南方集团", "number_of_buildings": 15, "number_of_rooms": 190, "name": "广中路547弄", "location": {"lat": 31.286182, "lng": 121.4742}, "address": "虹口区"}, {"compound_name": "金菊小区", "link": "https://sh.lianjia.com/xiaoqu/5011000012391/", "available_address": "泉口路185弄", "year_of_construction": 1994, "building_type": "板楼", "management_company": "上海新凯物业管理公司", "developer_company": "上海新凯房地产开发有限公司", "number_of_buildings": 89, "number_of_rooms": 1514, "name": "泉口路185弄", "location": {"lat": 31.218825, "lng": 121.37317}, "address": "长宁区"}, {"compound_name": "世纪之春花园", "link": "https://sh.lianjia.com/xiaoqu/5011000017351/", "available_address": "福泉路123弄", "year_of_construction": 2003, "building_type": "板楼", "management_company": "狮城怡安(上海)物业管理有限公司", "developer_company": "上海骏顺房地产开发有限公司", "number_of_buildings": 36, "number_of_rooms": 930, "name": "世纪之春花园", "location": {"lat": 31.221624, "lng": 121.363716}, "address": "福泉路123弄1~38号", "province": "上海市", "city": "上海市", "area": "长宁区", "street_id": "74c933fb5f035d5f9e82ea60", "detail": 1, "uid": "74c933fb5f035d5f9e82ea60"}, {"compound_name": "仁恒河滨花园", "link": "https://sh.lianjia.com/xiaoqu/5011000015555/", "available_address": "芙蓉江路388弄", "year_of_construction": 2004, "building_type": "板楼", "management_company": "上海仁恒物业管理有限公司", "developer_company": "仁恒海河开发有限公司", "number_of_buildings": 27, "number_of_rooms": 1775, "name": "芙蓉江路388弄", "location": {"lat": 31.22105, "lng": 121.401366}, "address": "长宁区"}, {"compound_name": "天山星城", "link": "https://sh.lianjia.com/xiaoqu/5011000017842/", "available_address": "威宁路358弄", "year_of_construction": 2006, "building_type": "板楼", "management_company": "上海景瑞物业管理有限公司", "developer_company": "上海长宁房地产经营有限公司", "number_of_buildings": 41, "number_of_rooms": 2175, "name": "威宁路358弄", "location": {"lat": 31.21963, "lng": 121.392027}, "address": "长宁区"}, {"compound_name": "森晟世洋国际广场", "link": "https://sh.lianjia.com/xiaoqu/5011000018013/", "available_address": "虹梅路3721号", "year_of_construction": 2000, "building_type": "板楼", "management_company": "上海顺信物业管理有限公司", "developer_company": "上海森晟世洋房地产开发有限公司", "number_of_buildings": 1, "number_of_rooms": 382, "name": "森晟世洋国际广场", "location": {"lat": 31.19695, "lng": 121.390556}, "address": "上海市长宁区虹梅路3721号", "province": "上海市", "city": "上海市", "area": "长宁区", "street_id": "0b120e52674f2bab5d0d0247", "detail": 1, "uid": "0b120e52674f2bab5d0d0247"}, {"compound_name": "美兰湖岭域", "link": "https://sh.lianjia.com/xiaoqu/5011000011023/", "available_address": "罗芬路98弄", "year_of_construction": 2009, "building_type": "板楼", "management_company": "景瑞物业", "developer_company": "上海景尚置业有限公司", "number_of_buildings": 98, "number_of_rooms": 949, "name": "罗芬路98弄", "location": {"lat": 31.401802, "lng": 121.364896}, "address": "宝山区"}, {"compound_name": "舜峰家苑", "link": "https://sh.lianjia.com/xiaoqu/5011000019162/", "available_address": "海鹏路301弄", "year_of_construction": 2010, "building_type": "板楼", "management_company": "上海昌悦物业管理有限公司", "developer_company": "舜峰地产物业有限公司", "number_of_buildings": 38, "number_of_rooms": 1418, "name": "海鹏路", "location": {"lat": 31.293672, "lng": 121.675421}, "address": "上海市浦东新区", "province": "上海市", "city": "上海市", "area": "浦东新区", "detail": 0, "uid": "f0c1ea450b488f6fa7c75685"}, {"compound_name": "水霞小区", "link": "https://sh.lianjia.com/xiaoqu/5011000016618/", "available_address": "仙霞路579弄, 茅台路601弄, 茅台路597弄, 安龙路790弄, 安龙路798弄, 安龙路812弄, 安龙路820弄, 茅台路597弄, 水城路511弄, 水城路495弄, 水城路491弄, 水城路451号, 水城路449号, 水城路447号, 水城路445号, 茅台路585号, 茅台路593号", "year_of_construction": 1987, "building_type": "塔楼/板楼", "management_company": "上海中星集团申城物业有限公司", "developer_company": "上海新元联业企业发展有限公司", "number_of_buildings": 95, "number_of_rooms": 1839, "name": "茅台新苑", "location": {"lat": 31.215083, "lng": 121.400404}, "address": "茅台路455弄1-14号", "province": "上海市", "city": "上海市", "area": "长宁区", "street_id": "e116be541f6ae37ac91b951d", "detail": 1, "uid": "e116be541f6ae37ac91b951d"}, {"compound_name": "春天花园", "link": "https://sh.lianjia.com/xiaoqu/5011000017999/", "available_address": "娄山关路999弄", "year_of_construction": 2003, "building_type": "塔楼/板楼/平房", "management_company": "上海上实金马物业管理有限公司", "developer_company": "上海东方金马房地产有限公司", "number_of_buildings": 77, "number_of_rooms": 1985, "name": "春天花园", "location": {"lat": 31.223018, "lng": 121.409956}, "address": "上海市长宁区娄山关路999弄", "province": "上海市", "city": "上海市", "area": "长宁区", "street_id": "46e86fdd81b66d76d03ce3ad", "detail": 1, "uid": "46e86fdd81b66d76d03ce3ad"}, {"compound_name": "天山怡景苑", "link": "https://sh.lianjia.com/xiaoqu/5011000013746/", "available_address": "威宁路511弄", "year_of_construction": 2009, "building_type": "板楼", "management_company": "上海新长宁集团仙霞物业管理有限公司", "developer_company": "上海新长宁（集团）有限公司", "number_of_buildings": 36, "number_of_rooms": 1564, "name": "威宁路511弄", "location": {"lat": 31.223494, "lng": 121.391069}, "address": "长宁区"}, {"compound_name": "新泾六村", "link": "https://sh.lianjia.com/xiaoqu/5011000003360/", "available_address": "金钟路340弄", "year_of_construction": 1992, "building_type": "板楼", "management_company": "长宁物业", "developer_company": "上海新长宁集团", "number_of_buildings": 57, "number_of_rooms": 1107, "name": "金钟路340弄", "location": {"lat": 31.225791, "lng": 121.373566}, "address": "长宁区"}, {"compound_name": "虹桥美爵酒店", "link": "https://sh.lianjia.com/xiaoqu/5011000012295/", "available_address": "仙霞路369号2号", "year_of_construction": 2006, "building_type": "塔楼", "management_company": "上海百士威物业有限公司", "developer_company": "虹光房地产有限责任公司", "number_of_buildings": 1, "number_of_rooms": 572, "name": "仙霞路369号", "location": {"lat": 31.211958, "lng": 121.403306}, "address": "长宁区"}, {"compound_name": "仙二小区", "link": "https://sh.lianjia.com/xiaoqu/5011000010812/", "available_address": "仙霞路454弄, 仙霞路458号", "year_of_construction": 1984, "building_type": "板楼", "management_company": "上海虹锦物业管理有限公司", "developer_company": "长宁集团", "number_of_buildings": 18, "number_of_rooms": 217, "name": "仙霞路", "location": {"lat": 31.213374, "lng": 121.384312}, "address": "上海市长宁区", "province": "上海市", "city": "上海市", "area": "长宁区", "detail": 0, "uid": "33879bece30ad8582bb97c92"}, {"compound_name": "仙霞大郡", "link": "https://sh.lianjia.com/xiaoqu/5011000015241/", "available_address": "仙霞路1225弄", "year_of_construction": 1999, "building_type": "板楼", "management_company": "上海新长宁集团大楼物业有限公司", "developer_company": "上海大将军置业有限公司", "number_of_buildings": 116, "number_of_rooms": 1420, "name": "仙霞大郡", "location": {"lat": 31.216011, "lng": 121.381142}, "address": "上海市长宁区仙霞路1225弄1-123号东门", "province": "上海市", "city": "上海市", "area": "长宁区", "street_id": "680fb7032eeb459d8bb98860", "detail": 1, "uid": "680fb7032eeb459d8bb98860"}, {"compound_name": "茅台新苑", "link": "https://sh.lianjia.com/xiaoqu/5011000018028/", "available_address": "茅台路455弄", "year_of_construction": 1987, "building_type": "塔楼/板楼", "management_company": "上海纺原物业有限公司", "developer_company": "上海中星（集团）有限公司", "number_of_buildings": 10, "number_of_rooms": 1587, "name": "茅台路455弄", "location": {"lat": 31.215492, "lng": 121.400244}, "address": "长宁区"}, {"compound_name": "复地御西郊", "link": "https://sh.lianjia.com/xiaoqu/5011000009661/", "available_address": "金浜路188弄", "year_of_construction": 2014, "building_type": "板楼", "management_company": "上海樱花置业长宁分公司", "developer_company": "上海樱花置业有限公司", "number_of_buildings": 19, "number_of_rooms": 277, "name": "188弄", "location": {"lat": 31.204845, "lng": 121.365475}, "address": ""}, {"compound_name": "樱源晶舍", "link": "https://sh.lianjia.com/xiaoqu/5011000016383/", "available_address": "福泉路550弄", "year_of_construction": 2005, "building_type": "板楼", "management_company": "上海怡东物业管理有限公司", "developer_company": "绿城集团", "number_of_buildings": 11, "number_of_rooms": 338, "name": "福泉路550弄", "location": {"lat": 31.208299, "lng": 121.366935}, "address": "长宁区"}, {"compound_name": "虹园六村", "link": "https://sh.lianjia.com/xiaoqu/5011000014766/", "available_address": "甘溪路100弄,平塘路456弄", "year_of_construction": 1994, "building_type": "板楼", "management_company": "申茂物业", "developer_company": "上海申茂物业管理有限公司", "number_of_buildings": 61, "number_of_rooms": 988, "name": "甘溪路100弄小区", "location": {"lat": 31.216466, "lng": 121.373353}, "address": "上海市长宁区甘溪路与平塘路交叉路口往东约100米(虹园六村)", "province": "上海市", "city": "上海市", "area": "长宁区", "street_id": "5efd40c771f5fe3bf6c59c08", "detail": 1, "uid": "5efd40c771f5fe3bf6c59c08"}, {"compound_name": "锦绣花木公寓", "link": "https://sh.lianjia.com/xiaoqu/5011000010024/", "available_address": "锦安东路219弄", "year_of_construction": 2006, "building_type": "板楼", "management_company": "上海百联物业管理有限公司", "developer_company": "上海金钢房地产开发公司", "number_of_buildings": 10, "number_of_rooms": 277, "name": "锦安东路219弄", "location": {"lat": 31.209341, "lng": 121.549758}, "address": "浦东新区"}, {"compound_name": "仙霞西路715弄", "link": "https://sh.lianjia.com/xiaoqu/5011000007403/", "available_address": "仙霞西路715弄", "year_of_construction": 1993, "building_type": "板楼", "management_company": "凯昌物业", "developer_company": "绿城集团", "number_of_buildings": 28, "number_of_rooms": 307, "name": "仙霞西路715弄1-30号小区", "location": {"lat": 31.214595, "lng": 121.364767}, "address": "仙霞西路715弄1~30号", "province": "上海市", "city": "上海市", "area": "长宁区", "street_id": "8127b41872567753c6f025b2", "detail": 1, "uid": "8127b41872567753c6f025b2"}, {"compound_name": "联建新村(长宁)", "link": "https://sh.lianjia.com/xiaoqu/5011000015336/", "available_address": "延安西路2029弄1-9号,延安西路2055弄1-8号,仙霞路15弄1-7号,联建新村", "year_of_construction": 1957, "building_type": "板楼", "management_company": "联建物业", "developer_company": "华东纺织工学院(今东华大学)、市医药设计院等单位", "number_of_buildings": 56, "number_of_rooms": 1230, "name": "延安西路2029弄2号", "location": {"lat": 31.21155, "lng": 121.417163}, "address": "延安西路2029弄2号", "province": "上海市", "city": "上海市", "area": "长宁区", "street_id": "6aaa5b246cf643f372210b00", "detail": 1, "uid": "6aaa5b246cf643f372210b00"}, {"compound_name": "学林苑", "link": "https://sh.lianjia.com/xiaoqu/5011000015545/", "available_address": "聚丰园路188弄", "year_of_construction": 2004, "building_type": "板楼", "management_company": "上海乾溪物业管理有限公司", "developer_company": "上海虹林房地产开发有限公司", "number_of_buildings": 85, "number_of_rooms": 1177, "name": "学林苑", "location": {"lat": 31.319602, "lng": 121.390951}, "address": "上海市宝山区聚丰园路188弄1-138号", "province": "上海市", "city": "上海市", "area": "宝山区", "street_id": "e116be541e8be27ac91b9542", "detail": 1, "uid": "e116be541e8be27ac91b9542"}, {"compound_name": "红梅小区(长宁)", "link": "https://sh.lianjia.com/xiaoqu/5011000003458/", "available_address": "平塘路415弄2-123号（双号）", "year_of_construction": 1997, "building_type": "板楼", "management_company": "上海虹康物业管理有限公司", "developer_company": "长宁集团", "number_of_buildings": 65, "number_of_rooms": 786, "name": "平塘路415弄-28号", "location": {"lat": 31.221297, "lng": 121.369725}, "address": "平塘路415弄2-123号红梅小区(平塘路)附近", "province": "上海市", "city": "上海市", "area": "长宁区", "street_id": "b6230e10eaf99934d4851f2a", "detail": 1, "uid": "b6230e10eaf99934d4851f2a"}, {"compound_name": "友谊小区", "link": "https://sh.lianjia.com/xiaoqu/5011000014322/", "available_address": "玉屏南路41弄, 玉屏南路113弄, 玉屏南路37号", "year_of_construction": 1982, "building_type": "板楼", "management_company": "长宁物业", "developer_company": "长宁开发", "number_of_buildings": 32, "number_of_rooms": 825, "name": "玉屏南路41弄-4号", "location": {"lat": 31.218207, "lng": 121.417035}, "address": "上海市长宁区玉屏南路41弄-2号", "province": "上海市", "city": "上海市", "area": "长宁区", "street_id": "2cf9335188ccb2e75b109351", "detail": 1, "uid": "2cf9335188ccb2e75b109351"}, {"compound_name": "新泾四村", "link": "https://sh.lianjia.com/xiaoqu/5011000013982/", "available_address": "天山西路385弄, 天山西路351弄, 新渔路280弄, 新渔路150弄, 新渔路250弄, 新渔路300弄, 新渔路254号, 新渔路264号, 新渔路274号, 新渔路148号, 天山西路343号, 天山西路355号, 天山西路347号, 天山西路357号, 天山西路361号, 天山西路363号, 天山西路365号, 天山西路359号, 新渔路142号", "year_of_construction": 1986, "building_type": "板楼", "management_company": "上海新长宁（集团）有限公司", "developer_company": "上海新长宁集团房地产投资咨询有限公司", "number_of_buildings": 71, "number_of_rooms": 1479, "name": "新泾四村社区-西门", "location": {"lat": 31.222926, "lng": 121.371508}, "address": "天山西路351弄5-12号,天山西路385弄1-15号,新渔路150弄5-13号,新渔路250弄2-14号,新渔路280弄1-2号,新渔路3", "province": "上海市", "city": "上海市", "area": "长宁区", "street_id": "e82d19e602c904c531870a09", "detail": 1, "uid": "e82d19e602c904c531870a09"}, {"compound_name": "新天地河滨花园", "link": "https://sh.lianjia.com/xiaoqu/5011000014412/", "available_address": "芙蓉江路555弄", "year_of_construction": 2011, "building_type": "板楼", "management_company": "上海古北物业管理有限公司", "developer_company": "上海新天地置业发展有限公司", "number_of_buildings": 15, "number_of_rooms": 1113, "name": "555弄", "location": {"lat": 31.221903, "lng": 121.402538}, "address": ""}, {"compound_name": "虹日小区", "link": "https://sh.lianjia.com/xiaoqu/5011000013345/", "available_address": "水城路21弄, 水城路45弄, 水城路23弄, 水城路47弄6-20号, 水城路45弄21支弄, 水城路21弄13支弄", "year_of_construction": 1985, "building_type": "板楼", "management_company": "上海虹锦物业管理有限公司", "developer_company": "上海虹锦房地产有限公司", "number_of_buildings": 123, "number_of_rooms": 1737, "name": "水城路45弄21支弄5幢", "location": {"lat": 31.207691, "lng": 121.397635}, "address": "水城路45弄21支弄5幢15-29单号", "province": "上海市", "city": "上海市", "area": "长宁区", "street_id": "84dc62120ec97482b23c81a9", "detail": 1, "uid": "84dc62120ec97482b23c81a9"}, {"compound_name": "遵义小区", "link": "https://sh.lianjia.com/xiaoqu/5011000009584/", "available_address": "天山三村1-49号,遵义路780弄", "year_of_construction": 1977, "building_type": "板楼", "management_company": "上海新长宁集团新程物业有限公司", "developer_company": "上海新长宁(集团)有限公司", "number_of_buildings": 26, "number_of_rooms": 449, "name": "遵义路780弄", "location": {"lat": 31.220579, "lng": 121.415461}, "address": "长宁区"}, {"compound_name": "平南一二村", "link": "https://sh.lianjia.com/xiaoqu/5011000004258/", "available_address": "平南一村, 平南二村", "year_of_construction": 1994, "building_type": "板楼", "management_company": "上海恒浩物业管理有限公司", "developer_company": "农工商房地产", "number_of_buildings": 122, "number_of_rooms": 1930, "name": "平南二村", "location": {"lat": 31.158219, "lng": 121.400347}, "address": "上海市闵行区平南路与万源路交叉路口往东北约100米(平南一村、-二村)", "province": "上海市", "city": "上海市", "area": "闵行区", "street_id": "9a10bb26715884df2d4733df", "detail": 1, "uid": "9a10bb26715884df2d4733df"}, {"compound_name": "星晓家园", "link": "https://sh.lianjia.com/xiaoqu/5011000010771/", "available_address": "金晓路96弄", "year_of_construction": 2011, "building_type": "板楼", "management_company": "上海浦东东龙物业有限公司", "developer_company": "上海中星（集团）有限公司", "number_of_buildings": 24, "number_of_rooms": 2056, "name": "金晓路96弄", "location": {"lat": 31.283806, "lng": 121.681232}, "address": "浦东新区"}, {"compound_name": "新泾七村", "link": "https://sh.lianjia.com/xiaoqu/5011000014969/", "available_address": "天山西路450弄,金钟路333弄", "year_of_construction": 1990, "building_type": "板楼", "management_company": "上海新长宁集团新程物业有限公司", "developer_company": "上海新长宁（集团）有限公司", "number_of_buildings": 158, "number_of_rooms": 2572, "name": "新泾七村社区", "location": {"lat": 31.225304, "lng": 121.368798}, "address": "上海市长宁区天山西路450弄1-78号,金钟路333弄1-95号", "province": "上海市", "city": "上海市", "area": "长宁区", "street_id": "72aa251304900b5e067ce8a3", "detail": 1, "uid": "72aa251304900b5e067ce8a3"}, {"compound_name": "虹仙小区", "link": "https://sh.lianjia.com/xiaoqu/5011000016924/", "available_address": "仙霞路750弄4-63号,仙霞路780弄2-44号", "year_of_construction": 1989, "building_type": "板楼", "management_company": "永乐物业，仙霞物业", "developer_company": "长宁建筑", "number_of_buildings": 75, "number_of_rooms": 1716, "name": "仙霞路750弄-2号", "location": {"lat": 31.212451, "lng": 121.390914}, "address": "上海市长宁区威宁大楼1号楼", "province": "上海市", "city": "上海市", "area": "长宁区", "street_id": "0d271b1175329b9b4d554742", "detail": 1, "uid": "0d271b1175329b9b4d554742"}, {"compound_name": "芙二小区", "link": "https://sh.lianjia.com/xiaoqu/5011000014780/", "available_address": "芙蓉江路150弄", "year_of_construction": 1986, "building_type": "板楼", "management_company": "仙霞物业", "developer_company": "上海新长宁(集团)有限公司", "number_of_buildings": 43, "number_of_rooms": 798, "name": "150弄", "location": {"lat": 31.213962, "lng": 121.400563}, "address": "长宁区"}, {"compound_name": "天山新苑", "link": "https://sh.lianjia.com/xiaoqu/5011000017982/", "available_address": "天山路202弄1-56号", "year_of_construction": 1998, "building_type": "板楼", "management_company": "上海司力物业有限公司", "developer_company": "上海司力房地产公司", "number_of_buildings": 51, "number_of_rooms": 673, "name": "天山新苑", "location": {"lat": 31.222608, "lng": 121.388744}, "address": "天山路202弄1~56号", "province": "上海市", "city": "上海市", "area": "长宁区", "street_id": "f2f15ffb38925289631c671c", "detail": 1, "uid": "f2f15ffb38925289631c671c"}, {"compound_name": "新泾三村", "link": "https://sh.lianjia.com/xiaoqu/5011000012746/", "available_address": "新泾三村, 天山西路211号, 天山西路207号", "year_of_construction": 1985, "building_type": "板楼", "management_company": "上海新长宁集团新程物业有限公司", "developer_company": "上海新长宁(集团)有限公司", "number_of_buildings": 95, "number_of_rooms": 2419, "name": "天山西路207号", "location": {"lat": 31.222581, "lng": 121.378591}, "address": "长宁区"}]